time,.header.seq,.header.stamp.secs,.header.stamp.nsecs,.header.frame_id,x_pose,y_pose,z_pose,.pose.orientation.x,.pose.orientation.y,.pose.orientation.z,.pose.orientation.w,c
2023/02/19/19:15:41.775666,0,1814896,293585439,map,0.01089377,9.80164814,14.89385033,0.000101643,0.002633594,-0.70709967,-0.707109088,0
2023/02/19/19:15:41.811467,1,1814896,334250498,map,0.012584649,9.80160141,14.89023209,-0.000177625,0.00317052,-0.707144072,-0.70706241,0
2023/02/19/19:15:41.843602,2,1814896,366250498,map,0.013956666,9.801872253,14.88753605,-0.000263623,0.003346745,-0.707138111,-0.707067528,0
2023/02/19/19:15:41.875626,3,1814896,398250498,map,0.015406368,9.802312851,14.88489628,-0.000451428,0.00388179,-0.707123704,-0.707079069,0
2023/02/19/19:15:41.911653,4,1814896,430913986,map,0.016821567,9.803107262,14.88252258,-0.000931126,0.004381688,-0.707079484,-0.707120001,0
2023/02/19/19:15:41.943130,5,1814896,462913986,map,0.018225633,9.804114342,14.88020611,-0.000971858,0.004659436,-0.707037243,-0.707160304,0
2023/02/19/19:15:41.975566,6,1814896,494913986,map,0.019604685,9.805353165,14.87804222,-0.001256078,0.005149906,-0.7070245,-0.707169337,0
2023/02/19/19:15:42.015501,7,1814896,535575742,map,0.021274902,9.807177544,14.87556076,-0.001516001,0.005600665,-0.707076513,-0.707113363,0
2023/02/19/19:15:42.047484,8,1814896,567575742,map,0.022630509,9.80883503,14.87373924,-0.001653014,0.005846919,-0.707131143,-0.707056289,0
2023/02/19/19:15:42.079187,9,1814896,599575742,map,0.023987604,9.810633659,14.87200642,-0.001977897,0.006261009,-0.707118191,-0.707065025,0
2023/02/19/19:15:42.115091,10,1814896,632247437,map,0.025286423,9.812687874,14.87052822,-0.002196817,0.0066574,-0.707108467,-0.707070367,0
2023/02/19/19:15:42.147173,11,1814896,664247437,map,0.026606534,9.814875603,14.86902428,-0.002267949,0.006863909,-0.707105006,-0.707071636,0
2023/02/19/19:15:42.179143,12,1814896,696247437,map,0.027900644,9.817322731,14.86769581,-0.002710539,0.007285727,-0.707110103,-0.707060807,0
2023/02/19/19:15:42.215535,13,1814896,736918038,map,0.029478462,9.820696831,14.86628342,-0.002986292,0.007713932,-0.707133271,-0.707032076,0
2023/02/19/19:15:42.247235,14,1814896,768918038,map,0.03076352,9.823565483,14.86518764,-0.003199356,0.007923864,-0.707128669,-0.70703339,0
2023/02/19/19:15:42.279100,15,1814896,800918038,map,0.032014523,9.826638222,14.86430168,-0.003649596,0.008450547,-0.707169637,-0.706984161,0
2023/02/19/19:15:42.315296,16,1814896,833586950,map,0.033243909,9.829907417,14.86357212,-0.004104523,0.00883624,-0.707234273,-0.706912107,0
2023/02/19/19:15:42.347405,17,1814896,865586950,map,0.034491464,9.83333683,14.86284733,-0.004321807,0.009038867,-0.707193144,-0.706949527,0
2023/02/19/19:15:42.379394,18,1814896,897586950,map,0.035703961,9.836956978,14.86226559,-0.004674547,0.009425507,-0.707172485,-0.706962937,0
2023/02/19/19:15:42.415477,19,1814896,938253934,map,0.037231401,9.841706276,14.86167908,-0.005153511,0.010013807,-0.707126368,-0.706997506,0
2023/02/19/19:15:42.447511,20,1814896,970253934,map,0.038443215,9.845645905,14.86132717,-0.005339137,0.010232015,-0.707138349,-0.706981057,0
2023/02/19/19:15:42.479471,21,1814897,2253934,map,0.039572205,9.849737167,14.86118412,-0.005725963,0.010579611,-0.707208579,-0.706902735,1
2023/02/19/19:15:42.515097,22,1814897,34919198,map,0.040733378,9.853983879,14.86099625,-0.006013178,0.010974121,-0.707154674,-0.706948211,1
2023/02/19/19:15:42.547251,23,1814897,66919198,map,0.041835282,9.858323097,14.86090374,-0.006292753,0.011141816,-0.707137795,-0.706960116,1
2023/02/19/19:15:42.578946,24,1814897,98919198,map,0.042876482,9.862732887,14.86093044,-0.006661012,0.011547511,-0.70714611,-0.706941939,1
2023/02/19/19:15:42.615613,25,1814897,139582528,map,0.044170488,9.868393898,14.86099148,-0.007064255,0.01182648,-0.707111859,-0.706967507,1
2023/02/19/19:15:42.647484,26,1814897,171582528,map,0.045092072,9.873042107,14.86122894,-0.007338785,0.011999879,-0.707115774,-0.706957861,1
2023/02/19/19:15:42.679272,27,1814897,203582528,map,0.045958005,9.877783775,14.86161613,-0.007675365,0.012407744,-0.707084106,-0.706978908,1
2023/02/19/19:15:42.719658,28,1814897,236244737,map,0.046826851,9.882600784,14.86203003,-0.00804647,0.012645217,-0.70707809,-0.706976663,1
2023/02/19/19:15:42.751701,29,1814897,268244737,map,0.047638442,9.887482643,14.86254692,-0.008256704,0.012963445,-0.707074329,-0.706972248,1
2023/02/19/19:15:42.783319,30,1814897,300244737,map,0.048443265,9.892419815,14.86310101,-0.008592862,0.013272818,-0.707061577,-0.706975221,1
2023/02/19/19:15:42.819527,31,1814897,340917572,map,0.049446963,9.898673058,14.86389256,-0.008944217,0.013680667,-0.70700891,-0.70701575,1
2023/02/19/19:15:42.851290,32,1814897,372917572,map,0.05021251,9.903734207,14.86457539,-0.009115446,0.01391061,-0.707012942,-0.707005143,1
2023/02/19/19:15:42.883433,33,1814897,404917572,map,0.050925594,9.908840179,14.86527443,-0.009379876,0.014359336,-0.706932781,-0.707072829,1
2023/02/19/19:15:42.919237,34,1814897,437587915,map,0.051551599,9.914031029,14.86604977,-0.00969124,0.014777129,-0.706942735,-0.707050062,1
2023/02/19/19:15:42.951347,35,1814897,469587915,map,0.052110236,9.919267654,14.86689377,-0.00992819,0.015059215,-0.706936876,-0.707046648,1
2023/02/19/19:15:42.983044,36,1814897,501587915,map,0.052730449,9.924552917,14.86770153,-0.010260189,0.015277867,-0.706908186,-0.707065898,1
2023/02/19/19:15:43.019400,37,1814897,542256688,map,0.053441465,9.931138039,14.86882687,-0.010660344,0.015730782,-0.706879073,-0.707079079,1
2023/02/19/19:15:43.051240,38,1814897,574256688,map,0.053918649,9.936375618,14.86985874,-0.010846765,0.015825201,-0.706847819,-0.707105444,1
2023/02/19/19:15:43.083094,39,1814897,606256688,map,0.054404411,9.941599846,14.87081051,-0.011153444,0.016123264,-0.706860651,-0.707081149,1
2023/02/19/19:15:43.119289,40,1814897,638923546,map,0.054852881,9.94674778,14.87186527,-0.011572299,0.016412576,-0.7068556,-0.707072713,1
2023/02/19/19:15:43.151718,41,1814897,670923546,map,0.055246823,9.951810837,14.87303257,-0.011618988,0.016435638,-0.706885363,-0.70704177,1
2023/02/19/19:15:43.183549,42,1814897,702923546,map,0.055672329,9.956805229,14.87421608,-0.011868498,0.01670171,-0.706869295,-0.707047385,1
2023/02/19/19:15:43.219376,43,1814897,743589071,map,0.056119811,9.962943077,14.87580395,-0.012073253,0.016865355,-0.706881297,-0.70702805,1
2023/02/19/19:15:43.251269,44,1814897,775589071,map,0.056455869,9.967826843,14.87707901,-0.012144886,0.016913749,-0.706867432,-0.707039555,1
2023/02/19/19:15:43.283367,45,1814897,807589071,map,0.056800105,9.972615242,14.87834263,-0.012327318,0.017086065,-0.706800079,-0.707099574,1
2023/02/19/19:15:43.323440,46,1814897,840252927,map,0.057056718,9.977290154,14.87972832,-0.012482044,0.017250885,-0.70681334,-0.707079653,1
2023/02/19/19:15:43.355467,47,1814897,872252927,map,0.057332903,9.981941223,14.88103485,-0.012551432,0.017330523,-0.706746212,-0.707143578,1
2023/02/19/19:15:43.387718,48,1814897,904252927,map,0.057561748,9.986523628,14.88240814,-0.012689949,0.017487447,-0.706749768,-0.707133532,1
2023/02/19/19:15:43.427408,49,1814897,944927324,map,0.057745945,9.992119789,14.88424683,-0.01282021,0.017619785,-0.706762408,-0.707115412,1
2023/02/19/19:15:43.459557,50,1814897,976927324,map,0.057866603,9.996459961,14.8857069,-0.012973186,0.017659281,-0.706742799,-0.707131229,1
2023/02/19/19:15:43.491631,51,1814898,8927324,map,0.057942942,10.00070953,14.8871994,-0.013107928,0.017692235,-0.706766585,-0.707104155,2
2023/02/19/19:15:43.527512,52,1814898,41612112,map,0.057968035,10.00487614,14.88871765,-0.013257161,0.017797393,-0.706789437,-0.707075908,2
2023/02/19/19:15:43.559556,53,1814898,73612112,map,0.05797049,10.00894928,14.89018917,-0.013252336,0.017759049,-0.706822522,-0.707043919,2
2023/02/19/19:15:43.591382,54,1814898,105612112,map,0.057904422,10.01288891,14.89165211,-0.013534393,0.017832843,-0.70688302,-0.706976088,2
2023/02/19/19:15:43.627352,55,1814898,146294805,map,0.057804748,10.01759815,14.89346504,-0.013749606,0.017887607,-0.706799633,-0.707053911,2
2023/02/19/19:15:43.659434,56,1814898,178294805,map,0.057771921,10.02125454,14.89486504,-0.013765078,0.017830357,-0.706870388,-0.706984336,2
2023/02/19/19:15:43.691823,57,1814898,210294805,map,0.057631232,10.02473831,14.89632225,-0.014032434,0.01779257,-0.706910947,-0.706939478,2
2023/02/19/19:15:43.727612,58,1814898,242976224,map,0.057490174,10.02809334,14.89771557,-0.014090764,0.017597726,-0.706922693,-0.706931526,2
2023/02/19/19:15:43.759452,59,1814898,274976224,map,0.057341319,10.03134823,14.89901543,-0.014240367,0.017700643,-0.706909082,-0.706939573,2
2023/02/19/19:15:43.791815,60,1814898,306976224,map,0.057112031,10.03442192,14.90035915,-0.014315931,0.017532731,-0.706967492,-0.70688386,2
2023/02/19/19:15:43.831227,61,1814898,347655543,map,0.05688801,10.03815556,14.90197849,-0.014295922,0.017559614,-0.706941719,-0.70690938,2
2023/02/19/19:15:43.863689,62,1814898,379655543,map,0.056666333,10.04106045,14.90322971,-0.014236249,0.017537211,-0.706921526,-0.706931344,2
2023/02/19/19:15:43.895744,63,1814898,411655543,map,0.056354716,10.04379749,14.90450478,-0.014208602,0.017487801,-0.706928759,-0.706925881,2
2023/02/19/19:15:43.931287,64,1814898,444344930,map,0.056066185,10.04644299,14.90565491,-0.014261482,0.017382138,-0.706901251,-0.706954906,2
2023/02/19/19:15:43.963374,65,1814898,476344930,map,0.055657897,10.0489378,14.90684891,-0.014283794,0.017247201,-0.7068527,-0.707006323,2
2023/02/19/19:15:43.995414,66,1814898,508344930,map,0.055224925,10.05136299,14.90796566,-0.01429825,0.017246472,-0.706750513,-0.707108089,2
2023/02/19/19:15:44.035606,67,1814898,549032900,map,0.054663986,10.05428696,14.90932178,-0.014271796,0.0170112,-0.706751407,-0.707113432,2
2023/02/19/19:15:44.067692,68,1814898,581032900,map,0.054152556,10.05648994,14.91041756,-0.014372332,0.016907009,-0.706732223,-0.707133122,2
2023/02/19/19:15:44.099259,69,1814898,613032900,map,0.053622901,10.05864429,14.91144466,-0.014184126,0.01682923,-0.706830032,-0.70704096,2
2023/02/19/19:15:44.135266,70,1814898,645730865,map,0.05301353,10.06073761,14.91244411,-0.0141546,0.016790407,-0.706876267,-0.706996328,2
2023/02/19/19:15:44.167127,71,1814898,677730865,map,0.052307077,10.06265163,14.91353703,-0.014186369,0.016679747,-0.706877958,-0.706996659,2
2023/02/19/19:15:44.199089,72,1814898,709730865,map,0.051528268,10.06459236,14.91456509,-0.014275664,0.016658074,-0.706961576,-0.706911693,2
2023/02/19/19:15:44.235291,73,1814898,750427436,map,0.050494008,10.06687832,14.91590214,-0.01417458,0.016554943,-0.706936535,-0.706941201,2
2023/02/19/19:15:44.267263,74,1814898,782427436,map,0.049600698,10.06856823,14.91702175,-0.014132799,0.016632441,-0.706963352,-0.706913372,2
2023/02/19/19:15:44.299362,75,1814898,814427436,map,0.048686463,10.07019806,14.91810608,-0.014159083,0.016358571,-0.706953447,-0.706929178,2
2023/02/19/19:15:44.335565,76,1814898,847121729,map,0.047773547,10.0716877,14.91923237,-0.014238404,0.01631962,-0.706906023,-0.706975928,2
2023/02/19/19:15:44.367167,77,1814898,879121729,map,0.046831202,10.07304001,14.92042637,-0.014194953,0.016182565,-0.70694584,-0.706940157,2
2023/02/19/19:15:44.399041,78,1814898,911121729,map,0.045900673,10.07431507,14.92161179,-0.014272504,0.016077131,-0.707032447,-0.706854393,2
2023/02/19/19:15:44.435234,79,1814898,951814733,map,0.04466391,10.07568073,14.92311764,-0.014199434,0.015741037,-0.707050205,-0.70684557,2
2023/02/19/19:15:44.467124,80,1814898,983814733,map,0.043663025,10.07659245,14.92429543,-0.014267976,0.015747958,-0.707088624,-0.70680555,2
2023/02/19/19:15:44.499126,81,1814899,15814733,map,0.042672865,10.07739449,14.92544842,-0.014243554,0.015491403,-0.707066408,-0.706834087,3
2023/02/19/19:15:44.535481,82,1814899,48505611,map,0.041643135,10.07807732,14.92664146,-0.014273962,0.015276268,-0.707015569,-0.706888972,3
2023/02/19/19:15:44.567419,83,1814899,80505611,map,0.040595774,10.07867718,14.92782974,-0.014214253,0.015041592,-0.70694158,-0.706969115,3
2023/02/19/19:15:44.599410,84,1814899,112505611,map,0.039535694,10.07915974,14.92906761,-0.014080058,0.01491037,-0.706938069,-0.706978021,3
2023/02/19/19:15:44.635484,85,1814899,153194652,map,0.038145509,10.07962322,14.93062305,-0.013926279,0.014648033,-0.706918256,-0.707006432,3
2023/02/19/19:15:44.667209,86,1814899,185194652,map,0.036955263,10.07988644,14.93186665,-0.013898224,0.01466504,-0.706910227,-0.70701463,3
2023/02/19/19:15:44.699580,87,1814899,217194652,map,0.03573297,10.08003616,14.93316364,-0.013690794,0.014338504,-0.706918952,-0.707016694,3
2023/02/19/19:15:44.735594,88,1814899,249882828,map,0.034516435,10.08004284,14.93452072,-0.013660482,0.014006493,-0.706863601,-0.70707921,3
2023/02/19/19:15:44.767301,89,1814899,281882828,map,0.03330807,10.07998562,14.93594551,-0.013652731,0.013955939,-0.706901,-0.707042991,3
2023/02/19/19:15:44.799283,90,1814899,313882828,map,0.032077301,10.07982922,14.93739891,-0.013670249,0.013780783,-0.706938842,-0.707008353,3
2023/02/19/19:15:44.835661,91,1814899,354568536,map,0.030524708,10.0794735,14.9392395,-0.013570228,0.013543883,-0.706894871,-0.707058729,3
2023/02/19/19:15:44.867226,92,1814899,386568536,map,0.029330768,10.07921982,14.9406147,-0.013519824,0.013404262,-0.706933029,-0.707024281,3
2023/02/19/19:15:44.899349,93,1814899,418568536,map,0.02812583,10.07888985,14.94195843,-0.013409301,0.013133251,-0.706944311,-0.707020163,3
2023/02/19/19:15:44.935102,94,1814899,451252738,map,0.02692456,10.07841682,14.94433594,-0.02327606,0.003012676,-0.707022303,-0.706801738,3
2023/02/19/19:15:44.967214,95,1814899,483252738,map,0.026182348,10.07782173,14.94971943,-0.041627337,-0.015465268,-0.706903858,-0.705914306,3
2023/02/19/19:15:44.999671,96,1814899,515252738,map,0.026956469,10.07702351,14.95773888,-0.0844314,-0.0589414,-0.70468594,-0.702007951,3
2023/02/19/19:15:45.039542,97,1814899,555935135,map,0.031902108,10.07606125,14.96990013,-0.131700924,-0.106888023,-0.699074412,-0.694640104,3
2023/02/19/19:15:45.071465,98,1814899,587935135,map,0.0400966,10.07521152,14.97995567,-0.152772474,-0.128547962,-0.695484211,-0.690244741,3
2023/02/19/19:15:45.103686,99,1814899,620628391,map,0.052963801,10.07425785,14.98979855,-0.187454627,-0.164005667,-0.68808654,-0.681542316,3
2023/02/19/19:15:45.139832,100,1814899,652628391,map,0.070254289,10.0734272,14.9978838,-0.21041147,-0.187622019,-0.682062694,-0.6747708,3
2023/02/19/19:15:45.171304,101,1814899,684628391,map,0.092329673,10.07258892,15.0045805,-0.217705048,-0.195153679,-0.67997741,-0.672421308,3
2023/02/19/19:15:45.203484,102,1814899,717319851,map,0.119435273,10.07177544,15.00969028,-0.22511428,-0.202964644,-0.677644326,-0.670020205,3
2023/02/19/19:15:45.239568,103,1814899,757319851,map,0.158807427,10.07082939,15.01403332,-0.225120973,-0.202858989,-0.67761693,-0.670077695,3
2023/02/19/19:15:45.271328,104,1814899,789319851,map,0.195633188,10.0700779,15.01619816,-0.222842832,-0.20051497,-0.678259254,-0.670894494,3
2023/02/19/19:15:45.303298,105,1814899,822009219,map,0.237031177,10.06933498,15.01733208,-0.215238674,-0.192883042,-0.680411762,-0.673430317,3
2023/02/19/19:15:45.339662,106,1814899,854009219,map,0.281896323,10.06860638,15.01787758,-0.205084244,-0.182444943,-0.683198278,-0.676678977,3
2023/02/19/19:15:45.371341,107,1814899,886009219,map,0.330965251,10.06785297,15.0177927,-0.19927782,-0.17666385,-0.684685286,-0.678442587,3
2023/02/19/19:15:45.403725,108,1814899,918697457,map,0.383359164,10.06714249,15.01739979,-0.187244613,-0.164505819,-0.687659597,-0.681910254,3
2023/02/19/19:15:45.443348,109,1814899,958697457,map,0.454207331,10.06614971,15.01641655,-0.174973186,-0.152186879,-0.690508938,-0.685143124,3
2023/02/19/19:15:45.475108,110,1814899,990697457,map,0.514858782,10.06528854,15.01537514,-0.168887268,-0.146091936,-0.69186653,-0.686625808,3
2023/02/19/19:15:45.507889,111,1814900,23395177,map,0.578431249,10.06436539,15.01429749,-0.155830004,-0.133160105,-0.694498591,-0.68967902,4
2023/02/19/19:15:45.543855,112,1814900,55395177,map,0.644995391,10.06336308,15.01318169,-0.144777679,-0.121907327,-0.696546013,-0.692099585,4
2023/02/19/19:15:45.575612,113,1814900,87395177,map,0.715497017,10.06225777,15.01191711,-0.140342311,-0.117681539,-0.697355021,-0.692929331,4
2023/02/19/19:15:45.607589,114,1814900,120091584,map,0.788142264,10.06105709,15.01068783,-0.128861616,-0.106361273,-0.699222746,-0.695103995,4
2023/02/19/19:15:45.643525,115,1814900,160091584,map,0.883379936,10.05940533,15.00908184,-0.119825105,-0.097450033,-0.700517583,-0.696721336,4
2023/02/19/19:15:45.675406,116,1814900,192091584,map,0.963145375,10.05796528,15.00774288,-0.114882547,-0.092662865,-0.701133169,-0.697587212,4
2023/02/19/19:15:45.707482,117,1814900,224786394,map,1.044919968,10.05642414,15.00641727,-0.105239106,-0.083274939,-0.702392672,-0.699024012,4
2023/02/19/19:15:45.743735,118,1814900,256786394,map,1.129670143,10.05480385,15.00503063,-0.09596057,-0.074310127,-0.703389885,-0.700365864,4
2023/02/19/19:15:45.779432,119,1814900,288786394,map,1.216563582,10.05311012,15.00364304,-0.091408397,-0.069900837,-0.70383096,-0.700985288,4
2023/02/19/19:15:45.811661,120,1814900,321490931,map,1.305600286,10.05133915,15.00224113,-0.082229903,-0.061229487,-0.704767043,-0.701991838,4
2023/02/19/19:15:45.847814,121,1814900,361490931,map,1.420112729,10.04900932,15.00047112,-0.073270375,-0.052735594,-0.705515981,-0.702920935,4
2023/02/19/19:15:45.879608,122,1814900,393490931,map,1.513885379,10.04704762,14.99907017,-0.068886399,-0.048520676,-0.705783439,-0.703399138,4
2023/02/19/19:15:45.911718,123,1814900,426194766,map,1.609549761,10.04504204,14.9976759,-0.060065995,-0.040081365,-0.706285432,-0.704234718,4
2023/02/19/19:15:45.951511,124,1814900,458194766,map,1.707032681,10.04300404,14.99631023,-0.051375396,-0.031698071,-0.706642187,-0.70499123,4
2023/02/19/19:15:45.983246,125,1814900,490194766,map,1.80602026,10.04087734,14.99490738,-0.046987384,-0.02746712,-0.706833828,-0.70528276,4
2023/02/19/19:15:46.015587,126,1814900,522908126,map,1.906539917,10.03870487,14.99350357,-0.03850105,-0.019207916,-0.706992378,-0.70591126,4
2023/02/19/19:15:46.051405,127,1814900,562908126,map,2.034100294,10.03585243,14.99174023,-0.030127585,-0.011199689,-0.70712597,-0.70635685,4
2023/02/19/19:15:46.083530,128,1814900,594908126,map,2.137570143,10.03345871,14.99035263,-0.025949816,-0.007150981,-0.707172977,-0.706527996,4
2023/02/19/19:15:46.115700,129,1814900,627620213,map,2.241967916,10.03101158,14.98901844,-0.017894995,0.000695402,-0.707268893,-0.706717751,4
2023/02/19/19:15:46.151430,130,1814900,659620213,map,2.347084522,10.02852631,14.98772907,-0.009931672,0.008000134,-0.707277982,-0.706820604,4
2023/02/19/19:15:46.183313,131,1814900,691620213,map,2.452964067,10.02597618,14.98646736,-0.006192904,0.011814069,-0.707245453,-0.706842259,4
2023/02/19/19:15:46.215752,132,1814900,724330134,map,2.559289932,10.02339077,14.98526478,0.00206292,0.019570208,-0.707010904,-0.706928788,4
2023/02/19/19:15:46.251590,133,1814900,764330134,map,2.692788839,10.02012348,14.98378468,0.00861677,0.025739863,-0.70671859,-0.706973869,4
2023/02/19/19:15:46.283325,134,1814900,796330134,map,2.799974442,10.0174799,14.98265934,0.0128911,0.029848014,-0.706540439,-0.706925354,4
2023/02/19/19:15:46.315322,135,1814900,829038219,map,2.907128334,10.01482964,14.98158741,0.019006246,0.035678732,-0.706147436,-0.706909954,4
2023/02/19/19:15:46.351410,136,1814900,861038219,map,3.014420986,10.0121603,14.98050785,0.02552774,0.041821591,-0.705813014,-0.706701693,4
2023/02/19/19:15:46.383591,137,1814900,893038219,map,3.121398211,10.00951862,14.9794836,0.028808271,0.044756604,-0.705624333,-0.706584219,4
2023/02/19/19:15:46.415691,138,1814900,925744651,map,3.227875948,10.00687885,14.97851181,0.035455411,0.051237907,-0.70511401,-0.706351072,4
2023/02/19/19:15:46.451428,139,1814900,965744651,map,3.360918045,10.00354958,14.9772644,0.040635128,0.056235252,-0.704709822,-0.70609524,4
2023/02/19/19:15:46.483533,140,1814900,997744651,map,3.466422558,10.00098133,14.97632408,0.04342799,0.058869924,-0.704466117,-0.705957432,4
2023/02/19/19:15:46.515345,141,1814901,30449375,map,3.571020603,9.998487473,14.97544098,0.049299547,0.064578878,-0.703923763,-0.705613691,5
2023/02/19/19:15:46.551605,142,1814901,62449375,map,3.675475121,9.995984077,14.974473,0.05386935,0.068890458,-0.703487517,-0.705306804,5
2023/02/19/19:15:46.583122,143,1814901,94449375,map,3.778295994,9.993563652,14.97361565,0.056778511,0.071703027,-0.703207038,-0.70507798,5
2023/02/19/19:15:46.615181,144,1814901,127151707,map,3.880268335,9.991233826,14.97272396,0.060999771,0.075664726,-0.702846402,-0.704670785,5
2023/02/19/19:15:46.651568,145,1814901,167151707,map,4.006361008,9.988420486,14.97161484,0.065194885,0.079811305,-0.702402666,-0.704280097,5
2023/02/19/19:15:46.683388,146,1814901,199151707,map,4.105318546,9.986258507,14.97078037,0.06712903,0.081754681,-0.702149188,-0.704128123,5
2023/02/19/19:15:46.715604,147,1814901,231852918,map,4.203146458,9.984087944,14.96995544,0.070918593,0.085457479,-0.701573408,-0.703890806,5
2023/02/19/19:15:46.751660,148,1814901,263852918,map,4.299762249,9.982011795,14.96916962,0.074964851,0.089400482,-0.70107522,-0.703478032,5
2023/02/19/19:15:46.783147,149,1814901,295852918,map,4.394007683,9.980020523,14.96849728,0.076307526,0.090773634,-0.700903509,-0.703328921,5
2023/02/19/19:15:46.814881,150,1814901,328552195,map,4.487408638,9.978154182,14.96779346,0.079637055,0.09384913,-0.70046595,-0.702992073,5
2023/02/19/19:15:46.851348,151,1814901,368552195,map,4.601332664,9.975952148,14.96701717,0.082459329,0.096799373,-0.700130491,-0.702600584,5
2023/02/19/19:15:46.883477,152,1814901,400552195,map,4.689655781,9.974332809,14.96654129,0.083909678,0.098095861,-0.699975934,-0.70240313,5
2023/02/19/19:15:46.914830,153,1814901,433250148,map,4.776798725,9.97282505,14.96610165,0.086308211,0.100635611,-0.699663495,-0.702064316,5
2023/02/19/19:15:46.951409,154,1814901,465250148,map,4.861607552,9.971418381,14.965765,0.088268335,0.102830576,-0.699424239,-0.701740912,5
2023/02/19/19:15:46.983165,155,1814901,497250148,map,4.9439888,9.97010994,14.96550655,0.089415722,0.103864668,-0.699267008,-0.701600081,5
2023/02/19/19:15:47.015482,156,1814901,529946151,map,5.024814606,9.968960762,14.96533203,0.090978312,0.105510907,-0.69909367,-0.701326157,5
2023/02/19/19:15:47.051478,157,1814901,569946151,map,5.121778488,9.967658043,14.96522141,0.092561657,0.107051592,-0.698892609,-0.701085939,5
2023/02/19/19:15:47.083379,158,1814901,601946151,map,5.196415901,9.966730118,14.96520233,0.093145196,0.107848298,-0.69884447,-0.700934472,5
2023/02/19/19:15:47.115023,159,1814901,634640885,map,5.268850803,9.965900421,14.96520138,0.094313381,0.108971364,-0.698658712,-0.700789713,5
2023/02/19/19:15:47.151729,160,1814901,666640885,map,5.338532448,9.965172768,14.9652338,0.095093874,0.109807877,-0.698534386,-0.70067768,5
2023/02/19/19:15:47.183434,161,1814901,698640885,map,5.40591526,9.964570045,14.96529007,0.095389569,0.110258476,-0.698465705,-0.700635094,5
2023/02/19/19:15:47.215241,162,1814901,731333575,map,5.47049427,9.964042664,14.96539879,0.095916883,0.11068543,-0.698359124,-0.700602168,5
2023/02/19/19:15:47.255599,163,1814901,771333575,map,5.54750824,9.963507652,14.96554661,0.095985314,0.111019396,-0.698234634,-0.700663944,5
2023/02/19/19:15:47.287615,164,1814901,803333575,map,5.606268883,9.963247299,14.96566772,0.096063979,0.111122679,-0.698211586,-0.700659764,5
2023/02/19/19:15:47.319389,165,1814901,836036463,map,5.662510872,9.963060379,14.96583748,0.095825521,0.11122572,-0.698233544,-0.700654244,5
2023/02/19/19:15:47.359492,166,1814901,868036463,map,5.715400219,9.962948799,14.96606731,0.095390225,0.110916322,-0.698275486,-0.700720788,5
2023/02/19/19:15:47.391497,167,1814901,900036463,map,5.766149044,9.962940216,14.9663353,0.09500573,0.11077668,-0.698333414,-0.70073746,5
2023/02/19/19:15:47.423395,168,1814901,932749404,map,5.813912392,9.963033676,14.96664238,0.09426544,0.110155184,-0.698439295,-0.700829922,5
2023/02/19/19:15:47.462901,169,1814901,972749404,map,5.869303226,9.963284492,14.96708965,0.093416993,0.109421354,-0.698574811,-0.700923347,5
2023/02/19/19:15:47.495528,170,1814902,4749404,map,5.910928249,9.963557243,14.9674921,0.092793096,0.109010799,-0.698620971,-0.70102428,6
2023/02/19/19:15:47.527444,171,1814902,37472118,map,5.949540615,9.963918686,14.96795082,0.091433237,0.107843637,-0.698862259,-0.701142926,6
2023/02/19/19:15:47.567437,172,1814902,69472118,map,5.98516655,9.964355469,14.96843624,0.08983801,0.106882722,-0.699070404,-0.701288646,6
2023/02/19/19:15:47.599322,173,1814902,101472118,map,6.018214226,9.964823723,14.9689846,0.089081611,0.106106324,-0.699144164,-0.701429583,6
2023/02/19/19:15:47.631220,174,1814902,134205460,map,6.048064232,9.965361595,14.96955395,0.087185967,0.104599642,-0.699364963,-0.701673831,6
2023/02/19/19:15:47.667291,175,1814902,174205460,map,6.082090855,9.966148376,14.97029591,0.085154457,0.102780827,-0.699582052,-0.701975655,6
2023/02/19/19:15:47.699205,176,1814902,206205460,map,6.106281281,9.966876984,14.97084618,0.084095992,0.101885301,-0.699693193,-0.702122958,6
2023/02/19/19:15:47.730968,177,1814902,238936976,map,6.127628326,9.967680931,14.97139645,0.081864675,0.099937463,-0.699980019,-0.702380838,6
2023/02/19/19:15:47.767326,178,1814902,270936976,map,6.146382332,9.968557358,14.97196102,0.079341703,0.097755519,-0.700307385,-0.702650946,6
2023/02/19/19:15:47.803629,179,1814902,303679260,map,6.162389278,9.969497681,14.97257614,0.07800439,0.096624112,-0.70045247,-0.702812606,6
2023/02/19/19:15:47.835557,180,1814902,335679260,map,6.175717354,9.970499992,14.97319317,0.075284866,0.094197896,-0.700847121,-0.703044931,6
2023/02/19/19:15:47.871605,181,1814902,375679260,map,6.188910007,9.971831322,14.9739275,0.072349168,0.091538547,-0.701190413,-0.703362164,6
2023/02/19/19:15:47.903454,182,1814902,408419900,map,6.196621895,9.972927094,14.97450161,0.0705072,0.089934251,-0.701346992,-0.70360008,6
2023/02/19/19:15:47.935800,183,1814902,440419900,map,6.201791763,9.974020958,14.97505379,0.067672267,0.087375305,-0.701687711,-0.703861049,6
2023/02/19/19:15:47.971469,184,1814902,472419900,map,6.204609871,9.975217819,14.9756031,0.064624791,0.084520599,-0.702082006,-0.704102834,6
2023/02/19/19:15:48.003392,185,1814902,505158051,map,6.204981327,9.976504326,14.97615623,0.063015392,0.083006568,-0.70225077,-0.70426054,6
2023/02/19/19:15:48.035536,186,1814902,537158051,map,6.203085423,9.977919579,14.97672653,0.05934113,0.079602984,-0.702644012,-0.704580338,6
2023/02/19/19:15:48.071693,187,1814902,577158051,map,6.197478294,9.979815483,14.97742653,0.056202527,0.076732511,-0.703002382,-0.704798706,6
2023/02/19/19:15:48.103437,188,1814902,609895020,map,6.19040966,9.981397629,14.97794914,0.054505118,0.075146606,-0.703169532,-0.704936109,6
2023/02/19/19:15:48.135637,189,1814902,641895020,map,6.181196213,9.983096123,14.97845364,0.050847135,0.071868219,-0.703513207,-0.705208368,6
2023/02/19/19:15:48.175442,190,1814902,673895020,map,6.169846058,9.984856606,14.97895622,0.047201536,0.068560863,-0.703847805,-0.705457082,6
2023/02/19/19:15:48.207342,191,1814902,706642197,map,6.156468868,9.986636162,14.97943592,0.044958739,0.066616823,-0.703994169,-0.705643762,6
2023/02/19/19:15:48.239550,192,1814902,738642197,map,6.141130924,9.988464355,14.97989941,0.041550086,0.063496688,-0.704292504,-0.705842592,6
2023/02/19/19:15:48.275193,193,1814902,778642197,map,6.119271755,9.990783691,14.98043823,0.037780036,0.060069183,-0.70460615,-0.706041452,6
2023/02/19/19:15:48.307354,194,1814902,811387711,map,6.0998106,9.992663383,14.98083878,0.035786776,0.058251157,-0.704748536,-0.706155571,6
2023/02/19/19:15:48.339436,195,1814902,843387711,map,6.07852602,9.994673729,14.98121643,0.031970913,0.054663409,-0.704981167,-0.70639313,6
2023/02/19/19:15:48.375313,196,1814902,875387711,map,6.055707455,9.996624947,14.98158646,0.028081548,0.051120304,-0.705259806,-0.706545738,6
2023/02/19/19:15:48.407258,197,1814902,908131785,map,6.03130722,9.998590469,14.98191547,0.026190443,0.049270413,-0.70538887,-0.706620918,6
2023/02/19/19:15:48.439391,198,1814902,940131785,map,6.005366325,10.00057507,14.98223686,0.022231109,0.045620118,-0.705652664,-0.7067383,6
2023/02/19/19:15:48.479028,199,1814902,980131785,map,5.971157551,10.00298691,14.98263073,0.01835301,0.042022377,-0.705895038,-0.706830572,6
2023/02/19/19:15:48.511365,200,1814903,12885700,map,5.942286015,10.00492573,14.98294544,0.016538689,0.040191648,-0.705976994,-0.706900008,7
2023/02/19/19:15:48.543097,201,1814903,44885700,map,5.912075996,10.00687313,14.98325634,0.012867802,0.03679374,-0.706109729,-0.707028752,7
2023/02/19/19:15:48.579043,202,1814903,76885700,map,5.880734444,10.0087986,14.9835701,0.009184039,0.033318592,-0.706268572,-0.707099946,7
2023/02/19/19:15:48.610740,203,1814903,109638023,map,5.848136425,10.01075554,14.98389912,0.007396283,0.031499468,-0.706325921,-0.707146952,7
2023/02/19/19:15:48.643320,204,1814903,141638023,map,5.81455183,10.01266003,14.98421764,0.003618705,0.028043567,-0.706397691,-0.707250092,7
2023/02/19/19:15:48.679074,205,1814903,181638023,map,5.771196842,10.01499081,14.98459816,-0.000309457,0.02432392,-0.706550201,-0.707244759,7
2023/02/19/19:15:48.711190,206,1814903,214388326,map,5.735404491,10.01683998,14.98488998,-0.002174804,0.022599824,-0.70661192,-0.707236988,7
2023/02/19/19:15:48.743615,207,1814903,246388326,map,5.698949814,10.01867104,14.98518085,-0.005423442,0.019596661,-0.706624222,-0.707296925,7
2023/02/19/19:15:48.783566,208,1814903,278388326,map,5.661963463,10.02044201,14.98549747,-0.008774467,0.01641965,-0.706674918,-0.707293434,7
2023/02/19/19:15:48.815313,209,1814903,311149140,map,5.624219894,10.02222729,14.98582745,-0.010554761,0.014763633,-0.706705488,-0.707275086,7
2023/02/19/19:15:48.847422,210,1814903,343149140,map,5.586075783,10.02396965,14.986166,-0.013807878,0.011600057,-0.706766928,-0.707216681,7
2023/02/19/19:15:48.883480,211,1814903,383149140,map,5.537703991,10.02611542,14.98661804,-0.016906462,0.008553462,-0.70679454,-0.707165046,7
2023/02/19/19:15:48.915292,212,1814903,415908126,map,5.498513699,10.02785778,14.98696327,-0.018540071,0.007099633,-0.70682257,-0.707112318,7
2023/02/19/19:15:48.947279,213,1814903,447908126,map,5.459197998,10.02955341,14.98729324,-0.021637339,0.004109098,-0.706883217,-0.706987439,7
2023/02/19/19:15:48.983284,214,1814903,479908126,map,5.419515133,10.03125,14.9875803,-0.024824942,0.000935323,-0.706893606,-0.706883568,7
2023/02/19/19:15:49.015417,215,1814903,512665065,map,5.379900455,10.03288746,14.98786163,-0.025988484,-0.000133174,-0.706882281,-0.706853673,7
2023/02/19/19:15:49.047111,216,1814903,544665065,map,5.340415955,10.03447819,14.98813152,-0.02867631,-0.002946415,-0.706830234,-0.706795633,7
2023/02/19/19:15:49.083393,217,1814903,584665065,map,5.290527821,10.03646564,14.98846531,-0.03132722,-0.005508061,-0.706853001,-0.706645077,7
2023/02/19/19:15:49.114714,218,1814903,617420251,map,5.250556469,10.03800869,14.98869419,-0.032699406,-0.006692285,-0.706849298,-0.706576371,7
2023/02/19/19:15:49.147237,219,1814903,649420251,map,5.211249828,10.03943062,14.98889446,-0.035200234,-0.009234994,-0.706900793,-0.706376013,7
2023/02/19/19:15:49.183362,220,1814903,681420251,map,5.171524525,10.04086399,14.98908043,-0.037568893,-0.011497993,-0.706898542,-0.706222912,7
2023/02/19/19:15:49.215373,221,1814903,714174179,map,5.132227898,10.04220867,14.98928928,-0.038694027,-0.012698238,-0.706904439,-0.706135671,7
2023/02/19/19:15:49.247028,222,1814903,746174179,map,5.093438148,10.0434742,14.9894762,-0.041182048,-0.015023435,-0.706936275,-0.705917461,7
2023/02/19/19:15:49.283448,223,1814903,786174179,map,5.045289516,10.04502583,14.98969841,-0.042972902,-0.016850577,-0.706895025,-0.705810776,7
2023/02/19/19:15:49.315335,224,1814903,818926130,map,5.007266998,10.04619408,14.98983669,-0.043927562,-0.017754224,-0.706886519,-0.705738276,7
2023/02/19/19:15:49.347178,225,1814903,850926130,map,4.969938278,10.04727173,14.98995876,-0.045675177,-0.019623815,-0.706808434,-0.705656034,7
2023/02/19/19:15:49.383654,226,1814903,882926130,map,4.932957172,10.04832363,14.99007416,-0.047340582,-0.021220218,-0.706711093,-0.705597685,7
2023/02/19/19:15:49.415556,227,1814903,915676198,map,4.897163391,10.0492506,14.9901886,-0.048338119,-0.022139383,-0.706623105,-0.705589915,7
2023/02/19/19:15:49.447085,228,1814903,947676198,map,4.861418724,10.05014706,14.99028015,-0.049562561,-0.023490376,-0.706580159,-0.705504229,7
2023/02/19/19:15:49.483443,229,1814903,987676198,map,4.817885399,10.05112362,14.99042988,-0.05108205,-0.024917969,-0.706510055,-0.705417125,7
2023/02/19/19:15:49.515482,230,1814904,20424539,map,4.78435421,10.05174923,14.99054813,-0.051539521,-0.025383282,-0.706549552,-0.705327642,8
2023/02/19/19:15:49.547140,231,1814904,52424539,map,4.75096941,10.05232239,14.99072647,-0.052748717,-0.026552607,-0.706586652,-0.705158116,8
2023/02/19/19:15:49.583557,232,1814904,84424539,map,4.718531609,10.05279922,14.99093914,-0.05359276,-0.027710992,-0.706611063,-0.705025388,8
2023/02/19/19:15:49.615180,233,1814904,117171261,map,4.687088966,10.05318832,14.99118423,-0.054061001,-0.028172084,-0.706592582,-0.704989837,8
2023/02/19/19:15:49.647299,234,1814904,149171261,map,4.656249523,10.05354881,14.99145889,-0.05477418,-0.029058062,-0.70656319,-0.704928276,8
2023/02/19/19:15:49.683845,235,1814904,189171261,map,4.619027138,10.05386448,14.99179363,-0.055338039,-0.029986254,-0.706544508,-0.704864097,8
2023/02/19/19:15:49.714824,236,1814904,221915424,map,4.590476036,10.05397415,14.99207401,-0.05562817,-0.030226046,-0.706513742,-0.70486182,8
2023/02/19/19:15:49.747337,237,1814904,253915424,map,4.56235981,10.05408192,14.99237156,-0.056076511,-0.030843999,-0.706536171,-0.704777182,8
2023/02/19/19:15:49.783662,238,1814904,285915424,map,4.535810947,10.05412483,14.99267578,-0.056418713,-0.031329972,-0.706518843,-0.704745788,8
2023/02/19/19:15:49.815603,239,1814904,318658240,map,4.510057449,10.05417156,14.99301529,-0.056555601,-0.031533836,-0.706532458,-0.704712112,8
2023/02/19/19:15:49.847315,240,1814904,350658240,map,4.48548317,10.05415154,14.99335194,-0.056886853,-0.031877434,-0.706524818,-0.704677605,8
2023/02/19/19:15:49.883756,241,1814904,390658240,map,4.456211567,10.05410385,14.99371338,-0.05694513,-0.032009555,-0.706487776,-0.704704026,8
2023/02/19/19:15:49.915278,242,1814904,423399753,map,4.433851719,10.05405998,14.99397564,-0.057032698,-0.032178925,-0.706494665,-0.704682216,8
2023/02/19/19:15:49.951640,243,1814904,455399753,map,4.412481785,10.05402279,14.99419689,-0.057080988,-0.032133523,-0.706525393,-0.704649719,8
2023/02/19/19:15:49.987488,244,1814904,487399753,map,4.392748833,10.05389881,14.99441051,-0.056971465,-0.032225091,-0.706625672,-0.704553738,8
2023/02/19/19:15:50.019238,245,1814904,520151162,map,4.373586655,10.05378723,14.99463463,-0.0569298,-0.032137259,-0.706599964,-0.704586949,8
2023/02/19/19:15:50.051732,246,1814904,552151162,map,4.356040478,10.05359745,14.99487209,-0.056620614,-0.031952053,-0.706630306,-0.704589818,8
2023/02/19/19:15:50.087583,247,1814904,592151162,map,4.3355937,10.05336857,14.99518013,-0.056201071,-0.031727834,-0.706630717,-0.704633156,8
2023/02/19/19:15:50.119061,248,1814904,624900737,map,4.320133209,10.05316544,14.99539089,-0.055902859,-0.031470576,-0.706640444,-0.704658664,8
2023/02/19/19:15:50.151633,249,1814904,656900737,map,4.306307316,10.05287838,14.99557114,-0.055387872,-0.030950126,-0.706693352,-0.704669229,8
2023/02/19/19:15:50.187285,250,1814904,688900737,map,4.293445587,10.05256844,14.99571133,-0.05459609,-0.030428418,-0.706710902,-0.704736226,8
2023/02/19/19:15:50.219479,251,1814904,721647797,map,4.281582832,10.05222321,14.99581814,-0.054321574,-0.030066727,-0.706727186,-0.704756609,8
2023/02/19/19:15:50.251558,252,1814904,753647797,map,4.271029472,10.05179977,14.99592686,-0.053299445,-0.029325053,-0.7067945,-0.704798456,8
2023/02/19/19:15:50.287392,253,1814904,793647797,map,4.259399414,10.05120754,14.99606228,-0.05226933,-0.028540077,-0.706795397,-0.704906972,8
2023/02/19/19:15:50.323393,254,1814904,826393980,map,4.251301765,10.0506773,14.99625587,-0.051868791,-0.028251156,-0.706792105,-0.704951484,8
2023/02/19/19:15:50.355355,255,1814904,858393980,map,4.244458675,10.0500803,14.99647808,-0.050824716,-0.027275128,-0.706813339,-0.705044636,8
2023/02/19/19:15:50.391322,256,1814904,890393980,map,4.238589287,10.04941559,14.99669743,-0.049553516,-0.026337917,-0.706852024,-0.70513197,8
2023/02/19/19:15:50.423122,257,1814904,923150423,map,4.233935833,10.04868698,14.99688816,-0.049092122,-0.025840791,-0.70684355,-0.705191105,8
2023/02/19/19:15:50.455472,258,1814904,955150423,map,4.230474949,10.0479002,14.99707222,-0.047769266,-0.024825409,-0.706903055,-0.705258715,8
2023/02/19/19:15:50.491213,259,1814904,995150423,map,4.227296352,10.04681873,14.99730778,-0.046266346,-0.023682239,-0.706937811,-0.705363381,8
2023/02/19/19:15:50.523068,260,1814905,27904633,map,4.226112366,10.04587936,14.99748898,-0.045789603,-0.02318442,-0.706904637,-0.705444349,9
2023/02/19/19:15:50.555654,261,1814905,59904633,map,4.226058483,10.04488277,14.99765968,-0.044384808,-0.022002205,-0.706936626,-0.705539896,9
2023/02/19/19:15:50.591365,262,1814905,91904633,map,4.226781845,10.04392147,14.99782181,-0.043045573,-0.020734325,-0.706956439,-0.705641382,9
2023/02/19/19:15:50.623157,263,1814905,124657282,map,4.228533745,10.0429554,14.99796772,-0.042315176,-0.020165135,-0.706973146,-0.705685451,9
2023/02/19/19:15:50.655445,264,1814905,156657282,map,4.231083393,10.04202271,14.99806213,-0.040842909,-0.018680948,-0.707072422,-0.705713542,9
2023/02/19/19:15:50.691216,265,1814905,196657282,map,4.235433102,10.04085445,14.99820709,-0.039459472,-0.017442098,-0.70708639,-0.70580983,9
2023/02/19/19:15:50.723163,266,1814905,229407858,map,4.24012661,10.03987217,14.99833202,-0.038681654,-0.016706096,-0.707105229,-0.705851936,9
2023/02/19/19:15:50.755241,267,1814905,261407858,map,4.245571136,10.03881645,14.9984293,-0.037251399,-0.015304968,-0.707149726,-0.70591601,9
2023/02/19/19:15:50.791368,268,1814905,293407858,map,4.251815319,10.03769302,14.99851704,-0.035658576,-0.013987988,-0.707123285,-0.706052116,9
2023/02/19/19:15:50.823204,269,1814905,326156911,map,4.259109974,10.03652382,14.99861145,-0.034939242,-0.013303047,-0.707106533,-0.706118096,9
2023/02/19/19:15:50.855366,270,1814905,358156911,map,4.26692152,10.03531837,14.99876785,-0.033268586,-0.012102128,-0.707165015,-0.706161778,9
2023/02/19/19:15:50.891272,271,1814905,398156911,map,4.277944088,10.03375149,14.99896336,-0.031688838,-0.010690653,-0.707175301,-0.706246997,9
2023/02/19/19:15:50.923333,272,1814905,430903948,map,4.287599564,10.0324316,14.99910069,-0.030938894,-0.010055035,-0.707172347,-0.706292434,9
2023/02/19/19:15:50.955552,273,1814905,462903948,map,4.297740936,10.03107834,14.99927807,-0.029431297,-0.008784691,-0.70720449,-0.706341635,9
2023/02/19/19:15:50.991320,274,1814905,494903948,map,4.308630466,10.02968311,14.99946308,-0.0279577,-0.00743971,-0.707190224,-0.706431175,9
2023/02/19/19:15:51.023249,275,1814905,527649065,map,4.320231915,10.02827072,14.99964619,-0.027129346,-0.006879723,-0.707214374,-0.706445042,9
2023/02/19/19:15:51.055446,276,1814905,559649065,map,4.33238554,10.02687454,14.99985027,-0.025450542,-0.005380647,-0.707183084,-0.706551775,9
2023/02/19/19:15:51.091693,277,1814905,599649065,map,4.348527908,10.02513123,15.00005817,-0.023829294,-0.004029986,-0.707170676,-0.706629763,9
2023/02/19/19:15:51.122768,278,1814905,632392665,map,4.362027168,10.02374077,15.00018024,-0.023126987,-0.003198417,-0.707165229,-0.706662774,9
2023/02/19/19:15:51.155492,279,1814905,664392665,map,4.376082897,10.02235222,15.0002861,-0.021438571,-0.001809786,-0.707166295,-0.706719786,9
2023/02/19/19:15:51.190859,280,1814905,696392665,map,4.390688419,10.02093697,15.00040245,-0.020014299,-0.000396303,-0.707203616,-0.706726551,9
2023/02/19/19:15:51.222836,281,1814905,729134749,map,4.405750275,10.01947975,15.00054073,-0.019135019,0.00040645,-0.707241832,-0.706712695,9
2023/02/19/19:15:51.255378,282,1814905,761134749,map,4.421325684,10.01800537,15.00071621,-0.017528102,0.00179606,-0.70719665,-0.706797328,9
2023/02/19/19:15:51.295467,283,1814905,801134749,map,4.441421509,10.01610851,15.00097275,-0.015954738,0.003192572,-0.707157536,-0.706868894,9
2023/02/19/19:15:51.327424,284,1814905,833886350,map,4.45796442,10.01459599,15.00117779,-0.0151776,0.003907112,-0.707161325,-0.706878592,9
2023/02/19/19:15:51.359179,285,1814905,865886350,map,4.474879742,10.01309967,15.00137424,-0.013528487,0.005204441,-0.707191545,-0.706873576,9
2023/02/19/19:15:51.395047,286,1814905,897886350,map,4.492139816,10.01157665,15.00157833,-0.012093498,0.006559074,-0.707133045,-0.706946659,9
2023/02/19/19:15:51.427038,287,1814905,930635993,map,4.509761333,10.01002216,15.00187874,-0.01125157,0.007213353,-0.707075718,-0.707011572,9
2023/02/19/19:15:51.459152,288,1814905,962635993,map,4.52763176,10.00848389,15.00214195,-0.009800571,0.008449786,-0.707024033,-0.707071182,9
2023/02/19/19:15:51.495420,289,1814906,2635993,map,4.550304413,10.00655937,15.00249577,-0.008279024,0.009720141,-0.707025704,-0.707072629,10
2023/02/19/19:15:51.527516,290,1814906,35383999,map,4.568748951,10.0050602,15.00274467,-0.007654508,0.010417461,-0.707032605,-0.707062778,10
2023/02/19/19:15:51.559328,291,1814906,67383999,map,4.587318897,10.00358391,15.0029583,-0.006260555,0.011583404,-0.706936011,-0.707155073,10
2023/02/19/19:15:51.595442,292,1814906,99383999,map,4.606073856,10.00212955,15.00314808,-0.005069749,0.012764298,-0.706847572,-0.707232638,10
2023/02/19/19:15:51.627219,293,1814906,132130596,map,4.624951363,10.00067711,15.0032835,-0.004281818,0.013504938,-0.706790912,-0.707280615,10
2023/02/19/19:15:51.659119,294,1814906,164130596,map,4.643821716,9.999264717,15.00338268,-0.003196746,0.014501831,-0.706787195,-0.707270424,10
2023/02/19/19:15:51.695173,295,1814906,204130596,map,4.667565346,9.997520447,15.00343513,-0.001935633,0.015703538,-0.706772158,-0.707264304,10
2023/02/19/19:15:51.727314,296,1814906,236875484,map,4.68652153,9.996166229,15.00345135,-0.001253015,0.016311596,-0.706809839,-0.707214568,10
2023/02/19/19:15:51.759352,297,1814906,268875484,map,4.705414295,9.994829178,15.00346088,-0.000215727,0.017267439,-0.706825593,-0.707177067,10
2023/02/19/19:15:51.795069,298,1814906,300875484,map,4.724334717,9.993438721,15.00350475,0.000930287,0.018342771,-0.70677996,-0.707195051,10
2023/02/19/19:15:51.826975,299,1814906,333618214,map,4.743148804,9.992054939,15.00355244,0.001322152,0.018705006,-0.706830721,-0.70713426,10
2023/02/19/19:15:51.859251,300,1814906,365618214,map,4.761837482,9.990692139,15.00360203,0.002392348,0.019547493,-0.706820703,-0.707118568,10
2023/02/19/19:15:51.895196,301,1814906,405618214,map,4.785167217,9.988986015,15.0036459,0.003567519,0.020458908,-0.706835324,-0.707073348,10
2023/02/19/19:15:51.926938,302,1814906,438359133,map,4.803641796,9.987647057,15.00366116,0.004077137,0.020923064,-0.706824311,-0.707067924,10
2023/02/19/19:15:51.959249,303,1814906,470359133,map,4.822052002,9.986294746,15.00370121,0.004981491,0.021685749,-0.706774885,-0.707088606,10
2023/02/19/19:15:51.995327,304,1814906,502359133,map,4.840356827,9.984997749,15.00377369,0.005960257,0.022675759,-0.7067481,-0.7070767,10
2023/02/19/19:15:52.026965,305,1814906,535098597,map,4.858334064,9.983767509,15.00382519,0.006431836,0.023120036,-0.706770151,-0.707036105,10
2023/02/19/19:15:52.059533,306,1814906,567098597,map,4.876236916,9.982587814,15.00388145,0.00718369,0.023973942,-0.706718709,-0.707051974,10
2023/02/19/19:15:52.095470,307,1814906,607098597,map,4.898180008,9.981171608,15.00390244,0.007836474,0.024673927,-0.706628198,-0.707111381,10
2023/02/19/19:15:52.126801,308,1814906,639836646,map,4.915296555,9.980137825,15.00388336,0.008297564,0.025007034,-0.706613309,-0.707109243,10
2023/02/19/19:15:52.158856,309,1814906,671836646,map,4.932240486,9.979182243,15.00387096,0.008899882,0.025611738,-0.706581371,-0.707112184,10
2023/02/19/19:15:52.195052,310,1814906,703836646,map,4.948816299,9.978343964,15.00386238,0.009523921,0.026181353,-0.706661321,-0.707003237,10
2023/02/19/19:15:52.227141,311,1814906,736571959,map,4.964985371,9.977614403,15.00388336,0.009583631,0.026405787,-0.706671979,-0.706983475,10
2023/02/19/19:15:52.259120,312,1814906,768571959,map,4.980962276,9.976918221,15.00389004,0.009943479,0.026757459,-0.706621842,-0.707015404,10
2023/02/19/19:15:52.295072,313,1814906,808571959,map,5.000248909,9.976150513,15.00389671,0.0103469,0.027205381,-0.706623811,-0.706990507,10
2023/02/19/19:15:52.327018,314,1814906,841305788,map,5.015189171,9.975592613,15.00391865,0.010477972,0.027371887,-0.706653269,-0.706952704,10
2023/02/19/19:15:52.358906,315,1814906,873305788,map,5.029776573,9.975076675,15.0039978,0.01073347,0.02777173,-0.706643263,-0.706943407,10
2023/02/19/19:15:52.394884,316,1814906,905305788,map,5.043885708,9.974597931,15.004035,0.011043245,0.028102403,-0.706617946,-0.70695077,10
2023/02/19/19:15:52.427096,317,1814906,938037524,map,5.057698727,9.974164963,15.00301456,0.009909378,0.029386947,-0.706589336,-0.706944061,10
2023/02/19/19:15:52.459004,318,1814906,970037524,map,5.071251392,9.973720551,14.99783325,-0.018113188,0.065331461,-0.705854324,-0.705105333,10
2023/02/19/19:15:52.495704,319,1814907,10037524,map,5.087649345,9.972337723,14.98571777,-0.044852634,0.127058366,-0.700611185,-0.700705779,11
2023/02/19/19:15:52.527378,320,1814907,42767931,map,5.100000858,9.969654083,14.97224426,-0.058423356,0.159835575,-0.696234198,-0.697350168,11
2023/02/19/19:15:52.559214,321,1814907,74767931,map,5.111234665,9.964753151,14.95624733,-0.080312859,0.224482402,-0.68391044,-0.689510031,11
2023/02/19/19:15:52.595802,322,1814907,106767931,map,5.12076807,9.956799507,14.937397,-0.092307183,0.266251062,-0.673028179,-0.683829592,11
2023/02/19/19:15:52.627750,323,1814907,139496224,map,5.128600597,9.945506096,14.9171505,-0.097525974,0.285257183,-0.667227498,-0.681120065,11
2023/02/19/19:15:52.659416,324,1814907,171496224,map,5.134262562,9.930364609,14.89466381,-0.104344375,0.314129829,-0.656730493,-0.677598523,11
2023/02/19/19:15:52.695700,325,1814907,211496224,map,5.137722015,9.905163765,14.86338139,-0.1086953,0.333405163,-0.648020212,-0.676088952,11
2023/02/19/19:15:52.727488,326,1814907,244222725,map,5.13794136,9.880598068,14.83658791,-0.110240287,0.340090402,-0.644313344,-0.676051746,11
2023/02/19/19:15:52.759387,327,1814907,276222725,map,5.135026932,9.850750923,14.80749798,-0.112887004,0.349900017,-0.637525818,-0.677043154,11
2023/02/19/19:15:52.795485,328,1814907,308222725,map,5.129489899,9.816433907,14.77698135,-0.114566999,0.354360777,-0.633059397,-0.678630018,11
2023/02/19/19:15:52.827231,329,1814907,340947638,map,5.121315479,9.777583122,14.74508572,-0.11535152,0.355750232,-0.630941502,-0.679741699,11
2023/02/19/19:15:52.859268,330,1814907,372947638,map,5.109463215,9.732617378,14.71133423,-0.116920731,0.357432102,-0.627133323,-0.682111321,11
2023/02/19/19:15:52.895530,331,1814907,412947638,map,5.091108322,9.670287132,14.66786003,-0.118442096,0.3578033,-0.623923253,-0.684593515,11
2023/02/19/19:15:52.927583,332,1814907,445670656,map,5.072978973,9.614588737,14.63176441,-0.119289722,0.357829757,-0.622067338,-0.686119674,11
2023/02/19/19:15:52.959317,333,1814907,477670656,map,5.050833225,9.55218792,14.59427834,-0.120580543,0.357371632,-0.619635075,-0.688330076,11
2023/02/19/19:15:52.995228,334,1814907,509670656,map,5.026232719,9.485533714,14.55611134,-0.121812516,0.357138328,-0.617031237,-0.69056968,11
2023/02/19/19:15:53.027111,335,1814907,542391921,map,4.9979949,9.41274929,14.51687908,-0.122428756,0.356891337,-0.61578804,-0.691697227,11
2023/02/19/19:15:53.059274,336,1814907,574391921,map,4.966079712,9.333720207,14.47670555,-0.123587383,0.35651643,-0.613293807,-0.693897021,11
2023/02/19/19:15:53.095376,337,1814907,614391921,map,4.921962738,9.227585793,14.42553902,-0.124275156,0.356121156,-0.611440139,-0.695610846,11
2023/02/19/19:15:53.126706,338,1814907,647111584,map,4.882254601,9.135189056,14.3836832,-0.124709806,0.356190456,-0.610406759,-0.696404748,11
2023/02/19/19:15:53.159500,339,1814907,679111584,map,4.83869648,9.036259651,14.34113503,-0.125213767,0.355865282,-0.608720448,-0.697954756,11
2023/02/19/19:15:53.195387,340,1814907,711111584,map,4.792206764,8.932326317,14.29788589,-0.124724231,0.353908573,-0.607768066,-0.69986463,11
2023/02/19/19:15:53.227435,341,1814907,743829017,map,4.741466999,8.821313858,14.25357056,-0.123640172,0.351247252,-0.60778404,-0.701382296,11
2023/02/19/19:15:53.259299,342,1814907,775829017,map,4.6875453,8.705034256,14.20830441,-0.121135859,0.345105687,-0.608587743,-0.704165542,11
2023/02/19/19:15:53.295291,343,1814907,815829017,map,4.615298748,8.551755905,14.15029812,-0.117194581,0.335378532,-0.610578102,-0.707800186,11
2023/02/19/19:15:53.327406,344,1814907,848544951,map,4.553844929,8.423124313,14.10280991,-0.114863207,0.329455656,-0.611960761,-0.709767275,11
2023/02/19/19:15:53.359383,345,1814907,880544951,map,4.489543915,8.289777756,14.05448246,-0.10947488,0.315910312,-0.615381351,-0.713808025,11
2023/02/19/19:15:53.399280,346,1814907,912544951,map,4.422359943,8.151696205,14.00540829,-0.103287701,0.300670539,-0.619558283,-0.717688222,11
2023/02/19/19:15:53.431202,347,1814907,945270594,map,4.351690292,8.007910728,13.95554733,-0.099894216,0.292355166,-0.621921483,-0.719557745,11
2023/02/19/19:15:53.463212,348,1814907,977270594,map,4.278790951,7.860520363,13.90522957,-0.092955043,0.274957652,-0.626890033,-0.723026067,11
2023/02/19/19:15:53.499541,349,1814908,17270594,map,4.18363142,7.669761181,13.84155178,-0.085559198,0.256340062,-0.632350026,-0.726018541,12
2023/02/19/19:15:53.531248,350,1814908,49995389,map,4.104270458,7.512020111,13.79007626,-0.081676873,0.246778765,-0.635214362,-0.727277009,12
2023/02/19/19:15:53.563299,351,1814908,81995389,map,4.022889614,7.351064682,13.73829365,-0.073933022,0.226891542,-0.641202621,-0.729324047,12
2023/02/19/19:15:53.599414,352,1814908,113995389,map,3.938913345,7.186058521,13.68615818,-0.066077202,0.206441728,-0.647284216,-0.730779657,12
2023/02/19/19:15:53.631441,353,1814908,146717712,map,3.852988243,7.01803112,13.63372517,-0.062121288,0.195989636,-0.650373311,-0.731261749,12
2023/02/19/19:15:53.667271,354,1814908,178717712,map,3.765078306,6.846957207,13.58097935,-0.054285262,0.174865699,-0.656410666,-0.731847181,12
2023/02/19/19:15:53.703327,355,1814908,219450146,map,3.652412415,6.628945827,13.51476288,-0.046411124,0.153442045,-0.662481319,-0.731724039,12
2023/02/19/19:15:53.735617,356,1814908,251450146,map,3.560361385,6.45182085,13.46154976,-0.041766473,0.140489902,-0.665995373,-0.731415337,12
2023/02/19/19:15:53.767435,357,1814908,283450146,map,3.466649532,6.272366047,13.40810013,-0.034978523,0.120955523,-0.671132291,-0.730566692,12
2023/02/19/19:15:53.803495,358,1814908,316180898,map,3.371495962,6.090895653,13.35458565,-0.027672406,0.099406991,-0.67651747,-0.729161608,12
2023/02/19/19:15:53.834958,359,1814908,348180898,map,3.275022507,5.907633305,13.3007822,-0.024099982,0.088538219,-0.679084019,-0.72830285,12
2023/02/19/19:15:53.867306,360,1814908,380180898,map,3.177399635,5.722753525,13.24682045,-0.017261858,0.067269531,-0.683952402,-0.726213461,12
2023/02/19/19:15:53.903412,361,1814908,420909983,map,3.054078341,5.490049362,13.17924023,-0.010805264,0.046187902,-0.688372176,-0.723805019,12
2023/02/19/19:15:53.935578,362,1814908,452909983,map,2.954308033,5.302428246,13.12480164,-0.007838055,0.035823314,-0.69037586,-0.722520951,12
2023/02/19/19:15:53.967311,363,1814908,484909983,map,2.85384655,5.113984108,13.07026482,-0.001883675,0.015762216,-0.694071543,-0.719731003,12
2023/02/19/19:15:54.003623,364,1814908,517637387,map,2.752890825,4.925075531,13.01569462,0.00364576,-0.004142008,-0.697248934,-0.716807842,12
2023/02/19/19:15:54.035140,365,1814908,549637387,map,2.651308298,4.735544682,12.9608717,0.006377058,-0.013672367,-0.698550936,-0.715401316,12
2023/02/19/19:15:54.067486,366,1814908,581637387,map,2.549500227,4.546059608,12.90598965,0.011498198,-0.032361727,-0.700888112,-0.712443991,12
2023/02/19/19:15:54.103603,367,1814908,622362720,map,2.421901941,4.309254646,12.83716297,0.016179592,-0.050128127,-0.702670578,-0.709562926,12
2023/02/19/19:15:54.135024,368,1814908,654362720,map,2.319662809,4.120105743,12.78197956,0.01850296,-0.058780119,-0.703339389,-0.708178292,12
2023/02/19/19:15:54.167419,369,1814908,686362720,map,2.217680454,3.931821346,12.72680473,0.022622592,-0.074997917,-0.704433453,-0.705434095,12
2023/02/19/19:15:54.203558,370,1814908,719086087,map,2.115746021,3.744045973,12.6714716,0.02666437,-0.090253422,-0.705024173,-0.702911363,12
2023/02/19/19:15:54.235186,371,1814908,751086087,map,2.013880491,3.556898117,12.61597347,0.028431384,-0.097568832,-0.705177078,-0.701710351,12
2023/02/19/19:15:54.267541,372,1814908,783086087,map,1.913045168,3.371976614,12.56069279,0.032349945,-0.112926817,-0.705078585,-0.699332127,12
2023/02/19/19:15:54.303449,373,1814908,823808050,map,1.787200332,3.141778231,12.4912014,0.035491045,-0.124637519,-0.704713579,-0.697556157,12
2023/02/19/19:15:54.335566,374,1814908,855808050,map,1.687132716,2.959232807,12.43548107,0.037107055,-0.130783768,-0.704419943,-0.696642875,12
2023/02/19/19:15:54.367509,375,1814908,887808050,map,1.588533163,2.779593945,12.38000584,0.040416383,-0.143745747,-0.703382438,-0.694951119,12
2023/02/19/19:15:54.403503,376,1814908,920528297,map,1.490245223,2.600751877,12.32417297,0.043115483,-0.153558929,-0.702253756,-0.693830339,12
2023/02/19/19:15:54.435429,377,1814908,952528297,map,1.393178105,2.424406528,12.2683363,0.044748842,-0.159776179,-0.701442988,-0.693142787,12
2023/02/19/19:15:54.467272,378,1814908,984528297,map,1.29743433,2.250817299,12.2124958,0.047245363,-0.168491963,-0.699971559,-0.692400242,12
2023/02/19/19:15:54.503288,379,1814909,25246666,map,1.179202199,2.037013769,12.14246273,0.04998199,-0.177465206,-0.698135777,-0.691819661,13
2023/02/19/19:15:54.535341,380,1814909,57246666,map,1.086551666,1.86984086,12.08656883,0.051229126,-0.181643697,-0.697151748,-0.691636307,13
2023/02/19/19:15:54.567435,381,1814909,89246666,map,0.995084703,1.705106139,12.03052616,0.053661462,-0.189530637,-0.695087135,-0.691413442,13
2023/02/19/19:15:54.603368,382,1814909,121963076,map,0.904940128,1.542905331,11.97437286,0.055787913,-0.196601071,-0.692898232,-0.69146786,13
2023/02/19/19:15:54.635440,383,1814909,161963076,map,0.79470551,1.34482348,11.90422249,0.056961439,-0.199887019,-0.691721419,-0.691608451,13
2023/02/19/19:15:54.667531,384,1814909,193963076,map,0.708634079,1.190468431,11.84816647,0.059179001,-0.206531801,-0.689248843,-0.691938281,13
2023/02/19/19:15:54.703367,385,1814909,226677082,map,0.624142528,1.039161921,11.79209805,0.061062686,-0.211483408,-0.687180304,-0.692336203,13
2023/02/19/19:15:54.735623,386,1814909,258677082,map,0.54222995,0.892722845,11.73634052,0.061875509,-0.213851808,-0.685964994,-0.692741534,13
2023/02/19/19:15:54.767297,387,1814909,290677082,map,0.461554676,0.74866569,11.68038845,0.063587846,-0.218447485,-0.683628908,-0.693461457,13
2023/02/19/19:15:54.803475,388,1814909,323389493,map,0.383087993,0.608868301,11.62460804,0.065227948,-0.222184013,-0.681491148,-0.694225904,13
2023/02/19/19:15:54.835761,389,1814909,355389493,map,0.306876808,0.473409802,11.56897736,0.065814975,-0.223810223,-0.680403272,-0.694714873,13
2023/02/19/19:15:54.867444,390,1814909,387389493,map,0.2325169,0.341512859,11.51336861,0.067103172,-0.227171961,-0.678036902,-0.695813298,13
2023/02/19/19:15:54.907441,391,1814909,428099869,map,0.142701373,0.182650119,11.44407654,0.068031852,-0.22950648,-0.676163043,-0.696779735,13
2023/02/19/19:15:54.939386,392,1814909,460099869,map,0.073525555,0.060671907,11.38883114,0.068476206,-0.230512125,-0.67524282,-0.697296444,13
2023/02/19/19:15:54.971451,393,1814909,492099869,map,0.006454916,-0.057318613,11.33390713,0.069023962,-0.232104965,-0.673646694,-0.698257248,13
2023/02/19/19:15:55.007304,394,1814909,524820251,map,-0.057980388,-0.170366004,11.27961445,0.069545098,-0.233339605,-0.672075534,-0.699307305,13
2023/02/19/19:15:55.039260,395,1814909,556820251,map,-0.120075576,-0.279060125,11.22595596,0.069750016,-0.233521574,-0.671256489,-0.700012385,13
2023/02/19/19:15:55.071190,396,1814909,588820251,map,-0.179723457,-0.383253127,11.17307568,0.069800449,-0.233477441,-0.670042008,-0.70118472,13
2023/02/19/19:15:55.107195,397,1814909,629539877,map,-0.25007993,-0.50565505,11.10851383,0.069645465,-0.232763441,-0.669121287,-0.702315753,13
2023/02/19/19:15:55.139223,398,1814909,661539877,map,-0.303521127,-0.598301113,11.05800152,0.069553432,-0.232030513,-0.66867874,-0.702988675,13
2023/02/19/19:15:55.171346,399,1814909,693539877,map,-0.354066372,-0.685701132,11.00857067,0.068884477,-0.230211855,-0.668096235,-0.704205237,13
2023/02/19/19:15:55.207060,400,1814909,726256886,map,-0.401709527,-0.767862141,10.96034527,0.067960724,-0.227597908,-0.667776138,-0.705447086,13
2023/02/19/19:15:55.239259,401,1814909,758256886,map,-0.447115004,-0.846171498,10.91300392,0.067420175,-0.226132625,-0.667699836,-0.706042299,13
2023/02/19/19:15:55.271605,402,1814909,790256886,map,-0.489263058,-0.918488503,10.86711788,0.066274866,-0.222810432,-0.667699147,-0.707206494,13
2023/02/19/19:15:55.307337,403,1814909,830972109,map,-0.538262367,-1.002177119,10.81144238,0.064734793,-0.218812092,-0.667938697,-0.708370519,13
2023/02/19/19:15:55.339424,404,1814909,862972109,map,-0.574728012,-1.064313531,10.7680788,0.064030383,-0.216747139,-0.668157201,-0.708863032,13
2023/02/19/19:15:55.371255,405,1814909,894972109,map,-0.608002424,-1.120661259,10.7262888,0.062344556,-0.212189457,-0.668740691,-0.709841336,13
2023/02/19/19:15:55.407286,406,1814909,927685350,map,-0.63874501,-1.172492862,10.68569469,0.060465049,-0.207261996,-0.669490239,-0.71075271,13
2023/02/19/19:15:55.439575,407,1814909,959685350,map,-0.666856229,-1.219775677,10.64626789,0.059324424,-0.204298635,-0.67003952,-0.711188908,13
2023/02/19/19:15:55.471317,408,1814909,991685350,map,-0.69209367,-1.262052417,10.60825157,0.057403291,-0.199352908,-0.670962277,-0.711879953,13
2023/02/19/19:15:55.507059,409,1814910,32396689,map,-0.719838142,-1.308392763,10.56252956,0.055260419,-0.193652715,-0.672243175,-0.712414319,14
2023/02/19/19:15:55.539874,410,1814910,64396689,map,-0.739057422,-1.340368629,10.52737045,0.053897274,-0.190245469,-0.672979005,-0.712741939,14
2023/02/19/19:15:55.571959,411,1814910,96396689,map,-0.75538069,-1.367252111,10.49386501,0.051827869,-0.184642377,-0.67423136,-0.713185152,14
2023/02/19/19:15:55.607213,412,1814910,129106154,map,-0.769421518,-1.390370131,10.46131992,0.049426436,-0.178231662,-0.675754086,-0.713545379,14
2023/02/19/19:15:55.639423,413,1814910,161106154,map,-0.780845881,-1.408910036,10.43017197,0.047999307,-0.174150262,-0.676658674,-0.713793254,14
2023/02/19/19:15:55.671806,414,1814910,193106154,map,-0.789733291,-1.423032641,10.40043449,0.045708953,-0.168001405,-0.67825096,-0.713906145,14
2023/02/19/19:15:55.707073,415,1814910,233813398,map,-0.79748261,-1.43508482,10.36470604,0.042995402,-0.161019601,-0.680026767,-0.71399424,14
2023/02/19/19:15:55.739101,416,1814910,265813398,map,-0.800886929,-1.439891338,10.33766079,0.041729463,-0.157373493,-0.68088011,-0.714069055,14
2023/02/19/19:15:55.771351,417,1814910,297813398,map,-0.801935136,-1.440642476,10.31193256,0.038912236,-0.149857788,-0.682788478,-0.714022735,14
2023/02/19/19:15:55.806864,418,1814910,330519417,map,-0.800719559,-1.437612534,10.28723335,0.036344539,-0.142046739,-0.684717837,-0.713907208,14
2023/02/19/19:15:55.839159,419,1814910,362519417,map,-0.797278345,-1.430780411,10.26378632,0.034601388,-0.137144459,-0.685866887,-0.713849255,14
